[
    {
        "Name": "Finnegan's Bar",
        "Address": "Dublin Road",
        "latitude": 52.671178,
        "longitude": -8.515863,
        "Phone": "0876402415",
        "OpenNow" : 1,
        "City": "Limerick",
        "State": "LM",
        "Zip": "12345",
        "Currency": "Eur",
        "Site": "10-100",
        "Contact": "Tony Winter",
        "Link" : "www.qad.com"
    },
    {
        "Name": "Gaelic Grounds",
        "Address": "Castletroy",
        "latitude": 52.670319,
        "longitude": -8.653557,
        "Phone": "0876543456",
        "OpenNow" : 1,
        "City": "Limerick",
        "State": "LM",
        "Zip": "54321",
        "Currency": "Eur",
        "Site": "10-200",
        "Contact": "Ren√© Bergkamp",
        "Link" : "www.apple.com"
    },
     {
        "Name": "Ballyneety",
        "Address": "New town commons",
        "latitude": 52.596323,
        "longitude": -8.548522,
         "Phone": "087123456",
        "OpenNow" : 0,
        "City": "Wexford",
        "State": "Wx",
        "Zip": "98765",
        "Currency": "Eur",
        "Site": "10-300", 
         "Contact": "Luc Janssen",
        "link" : "www.karl.com"
    }
]